{
	"type": "FeatureCollection",
	"features": [{
			"type": "Feature",
			"properties": {
				"title": "Little Pomona",
				"buying": "Order online at <a href='http://www.littlepomona.com' target='_blank'>littlepomona.com</a> or visit their tap room",
				"address": "1 Testing Street, 2 Town Name, County, P05 7CD"
			},
			"geometry": {
				"type": "Point",
				"coordinates": [-2.49451,52.16932
				]
			}
		},{
			"type": "Feature",
			"properties": {
				"title": "Pilton Cider",
				"buying": "Order online at <a href='http://www.piltoncider.com' target='_blank'>piltoncider.com</a>",
				"address": "1 Testing Street, 2 Town Name, County, P05 7CD"
			},
			"geometry": {
				"type": "Point",
				"coordinates": [-2.55065,51.19201
				]
			}
		},{
			"type": "Feature",
			"properties": {
				"title": "FIND & FOSTER",
				"buying": "Order online at <a href='http://www.findandfosterciders.com' target='_blank'>findandfosterciders.com</a>",
				"address": "1 Testing Street, 2 Town Name, County, P05 7CD"
			},
			"geometry": {
				"type": "Point",
				"coordinates": [-3.49910,50.77200
				]
			}
		},{
			"type": "Feature",
			"properties": {
				"title": "Jolter Press",
				"buying": "Order online at <a href='http://www.https://jolterpress.com/' target='_blank'>jolterpress.com</a>",
				"address": "1 Testing Street, 2 Town Name, County, P05 7CD"
			},
			"geometry": {
				"type": "Point",
				"coordinates": [-2.488311445371339,51.865715032739296
				]
			}
		},{
			"type": "Feature",
			"properties": {
				"title": "Gregg’s Pit Cider & Perry",
				"buying": "View stockists online at <a href='http://www.greggs-pit.co.uk/' target='_blank'>greggs-pit.co.uk</a>",
				"address": "1 Testing Street, 2 Town Name, County, P05 7CD"
			},
			"geometry": {
				"type": "Point",
				"coordinates": [-2.4930212539689984,51.98873916362177
				]
			}
		},{
			"type": "Feature",
			"properties": {
				"title": "Butford Organics",
				"buying": "Order online at <a href='https://butfordorganics.co.uk/online-shop/' target='_blank'>Butfordorganics.co.uk/online-shop/</a> or visit the tap room",
				"address": "1 Testing Street, 2 Town Name, County, P05 7CD"
			},
			"geometry": {
				"type": "Point",
				"coordinates": [-2.670009357005841,52.17966981926898
				]
			}
		},{
			"type": "Feature",
			"properties": {
				"title": "Once Upon a Tree",
				"buying": "Order online at <a href='https://shop.haygrove-evolution.com/collections/once-upon-a-tree-cider' target='_blank'>haygrove-evolution.com</a>",
				"address": "1 Testing Street, 2 Town Name, County, P05 7CD"
			},
			"geometry": {
				"type": "Point",
				"coordinates": [-2.450154569312666,52.03652779813613
				]
			}
		},{
			"type": "Feature",
			"properties": {
				"title": "Newton Court Cider",
				"buying": "Order online at <a href='http://www.https://www.newtoncourtcider.com/shopnow' target='_blank'>newtoncourtcider.com/</a>",
				"address": "1 Testing Street, 2 Town Name, County, P05 7CD"
			},
			"geometry": {
				"type": "Point",
				"coordinates": [-2.720183031870624,52.18231383448291
				]
			}
		},{
			"type": "Feature",
			"properties": {
				"title": "Ross on Wye Cider & Perry Co",
				"buying": "Order online at <a href='http://shop.rosscider.com/' target='_blank'>rosscider.com/</a>",
				"address": "1 Testing Street, 2 Town Name, County, P05 7CD"
			},
			"geometry": {
				"type": "Point",
				"coordinates": [-2.6320935320326484,51.91777469612836
				]
			}
		},{
			"type": "Feature",
			"properties": {
				"title": "Fletchers Cider",
				"buying": "Find stockists at <a href='http://fletcherscider.com/' target='_blank'>fletcherscider.com/</a>",
				"address": "1 Testing Street, 2 Town Name, County, P05 7CD"
			},
			"geometry": {
				"type": "Point",
				"coordinates": [-2.4102280084559373,52.382594487682006
				]
			}
		},{
			"type": "Feature",
			"properties": {
				"title": "Wilce’s Cider",
				"buying": "Order online at <a href='http://www.bestofbritishbeer.co.uk ' target='_blank'>https://www.bestofbritishbeer.co.uk/cider/cider-by-producers/wilcecider.html</a>",
				"address": "1 Testing Street, 2 Town Name, County, P05 7CD"
			},
			"geometry": {
				"type": "Point",
				"coordinates": [-2.424529201269888,52.047254334774856
				]
			}
		},{
			"type": "Feature",
			"properties": {
				"title": "Oliver’s Fine Cider & Perry",
				"buying": "Order online at <a href='http://www.https://www.oliversciderandperry.co.uk/shop/' target='_blank'>oliversciderandperry.co.uk/</a>",
				"address": "1 Testing Street, 2 Town Name, County, P05 7CD"
			},
			"geometry": {
				"type": "Point",
				"coordinates": [-2.593235862592752,52.11932980284196
				]
			}
		},{
			"type": "Feature",
			"properties": {
				"title": "West Milton Cider Co",
				"buying": "Order online at <a href='http://westmiltoncider.co.uk/shop' target='_blank'>westmiltoncider.co.uk/</a>",
				"address": "1 Testing Street, 2 Town Name, County, P05 7CD"
			},
			"geometry": {
				"type": "Point",
				"coordinates": [-2.7103598713641577,50.76560299385829
				]
			}
		},{
			"type": "Feature",
			"properties": {
				"title": "Sheppy’s",
				"buying": "Order online at <a href='https://www.sheppyscider.com/online-shop/ ' target='_blank'>sheppyscider.com/</a>",
				"address": "1 Testing Street, 2 Town Name, County, P05 7CD"
			},
			"geometry": {
				"type": "Point",
				"coordinates": [-3.1719052019099863,50.99431038118422
				]
			}
		},{
			"type": "Feature",
			"properties": {
				"title": "Sandford Orchards",
				"buying": "Order online at <a href='http://www.sandfordorchards.co.uk/shop/' target='_blank'>sandfordorchards.co.uk/</a>",
				"address": "1 Testing Street, 2 Town Name, County, P05 7CD"
			},
			"geometry": {
				"type": "Point",
				"coordinates": [-3.645396632716934,50.7892714358231
				]
			}
		},{
			"type": "Feature",
			"properties": {
				"title": "The Somerset Cider Brandy Company",
				"buying": "Order online at <a href='http://www.somersetciderbrandy.com/' target='_blank'>somersetciderbrandy.com/</a>",
				"address": "1 Testing Street, 2 Town Name, County, P05 7CD"
			},
			"geometry": {
				"type": "Point",
				"coordinates": [-2.834153455895199,50.977372048427206
				]
			}
		},{
			"type": "Feature",
			"properties": {
				"title": "Polgoon",
				"buying": "Order online at <a href='polgoon.com/shop' target='_blank'>polgoon.com/</a> or visit for a tour and tasting.",
				"address": "1 Testing Street, 2 Town Name, County, P05 7CD"
			},
			"geometry": {
				"type": "Point",
				"coordinates": [-5.553440062400165,50.119325287069074
				]
			}
		},{
			"type": "Feature",
			"properties": {
				"title": "Hawkes",
				"buying": "Order online at <a href='https://www.brewdog.com/uk/shop/cider' target='_blank'>brewdog.com/</a>",
				"address": "1 Testing Street, 2 Town Name, County, P05 7CD"
			},
			"geometry": {
				"type": "Point",
				"coordinates": [-0.07471759261,51.50019991
				]
			}
		},{
			"type": "Feature",
			"properties": {
				"title": "Perry's Somerset Cider",
				"address": "1 Testing Street, 2 Town Name, County, P05 7CD"
			}
		},{
			"type": "Feature",
			"properties": {
				"title": "Bushel & Peck",
				"address": "1 Testing Street, 2 Town Name, County, P05 7CD"
			}
		},{
			"type": "Feature",
			"properties": {
				"title": "Barleywood Orchard",
				"address": "1 Testing Street, 2 Town Name, County, P05 7CD"
			}
		},{
			"type": "Feature",
			"properties": {
				"title": "Worleys",
				"address": "1 Testing Street, 2 Town Name, County, P05 7CD"
			}
		},{
			"type": "Feature",
			"properties": {
				"title": "The Newt in Somerset",
				"address": "1 Testing Street, 2 Town Name, County, P05 7CD"
			}
		},{
			"type": "Feature",
			"properties": {
				"title": "Wilding Cider",
				"address": "1 Testing Street, 2 Town Name, County, P05 7CD"
			}
		},{
			"type": "Feature",
			"properties": {
				"title": "Crafty Nectar",
				"address": "1 Testing Street, 2 Town Name, County, P05 7CD"
			}
		},{
			"type": "Feature",
			"properties": {
				"title": "Caledonian",
				"address": "1 Testing Street, 2 Town Name, County, P05 7CD"
			}
		},{
			"type": "Feature",
			"properties": {
				"title": "Duckchicken",
				"address": "1 Testing Street, 2 Town Name, County, P05 7CD"
			}
		},{
			"type": "Feature",
			"properties": {
				"title": "Green shed",
				"address": "1 Testing Street, 2 Town Name, County, P05 7CD"
			}
		},{
			"type": "Feature",
			"properties": {
				"title": "Nightingale",
				"address": "1 Testing Street, 2 Town Name, County, P05 7CD"
			}
		},{
			"type": "Feature",
			"properties": {
				"title": "Trevibban Mill",
				"address": "1 Testing Street, 2 Town Name, County, P05 7CD"
			}
		},{
			"type": "Feature",
			"properties": {
				"title": "Cidentro Cider House",
				"address": "1 Testing Street, 2 Town Name, County, P05 7CD"
			}
		},{
			"type": "Feature",
			"properties": {
				"title": "Bollhayes",
				"address": "1 Testing Street, 2 Town Name, County, P05 7CD"
			}
		},{
			"type": "Feature",
			"properties": {
				"title": "Skyborry",
				"address": "1 Testing Street, 2 Town Name, County, P05 7CD"
			}
		},{
			"type": "Feature",
			"properties": {
				"title": "Artistraw",
				"address": "1 Testing Street, 2 Town Name, County, P05 7CD"
			}
		},{
			"type": "Feature",
			"properties": {
				"title": "The Cumbrian Cider Co",
				"address": "1 Testing Street, 2 Town Name, County, P05 7CD"
			}
		},{
			"type": "Feature",
			"properties": {
				"title": "Orchards of Husthwaite",
				"address": "1 Testing Street, 2 Town Name, County, P05 7CD"
			}
		},{
			"type": "Feature",
			"properties": {
				"title": "The ORchard Project",
				"address": "1 Testing Street, 2 Town Name, County, P05 7CD"
			}
		},{
			"type": "Feature",
			"properties": {
				"title": "Local Fox",
				"address": "1 Testing Street, 2 Town Name, County, P05 7CD"
			}
		},{
			"type": "Feature",
			"properties": {
				"title": "Tillingham",
				"address": "1 Testing Street, 2 Town Name, County, P05 7CD"
			}
		},{
			"type": "Feature",
			"properties": {
				"title": "Fowey",
				"address": "1 Testing Street, 2 Town Name, County, P05 7CD"
			}
		},{
			"type": "Feature",
			"properties": {
				"title": "Cwm Maddoc",
				"address": "1 Testing Street, 2 Town Name, County, P05 7CD"
			}
		},{
			"type": "Feature",
			"properties": {
				"title": "Rull Orchard",
				"address": "1 Testing Street, 2 Town Name, County, P05 7CD"
			}
		},{
			"type": "Feature",
			"properties": {
				"title": "Ridge & Furrow",
				"address": "1 Testing Street, 2 Town Name, County, P05 7CD"
			}
		},{
			"type": "Feature",
			"properties": {
				"title": "Rock Hill Cider",
				"address": "1 Testing Street, 2 Town Name, County, P05 7CD"
			}
		},{
			"type": "Feature",
			"properties": {
				"title": "Kentish Pip",
				"address": "1 Testing Street, 2 Town Name, County, P05 7CD"
			}
		},{
			"type": "Feature",
			"properties": {
				"title": "Tor Cider Company",
				"address": "1 Testing Street, 2 Town Name, County, P05 7CD"
			}
		},{
			"type": "Feature",
			"properties": {
				"title": "Rebel Root Ciderworks",
				"address": "1 Testing Street, 2 Town Name, County, P05 7CD"
			}
		},{
			"type": "Feature",
			"properties": {
				"title": "Cider Nouveau",
				"address": "1 Testing Street, 2 Town Name, County, P05 7CD"
			}
		},{
			"type": "Feature",
			"properties": {
				"title": "Smith Hayne Cider",
				"address": "1 Testing Street, 2 Town Name, County, P05 7CD"
			}
		},{
			"type": "Feature",
			"properties": {
				"title": "Pulpt",
				"address": "1 Testing Street, 2 Town Name, County, P05 7CD"
			}
		},{
			"type": "Feature",
			"properties": {
				"title": "Bollhayes",
				"address": "1 Testing Street, 2 Town Name, County, P05 7CD"
			}
		},{
			"type": "Feature",
			"properties": {
				"title": "Cider from Kintbury",
				"address": "1 Testing Street, 2 Town Name, County, P05 7CD"
			}
		},{
			"type": "Feature",
			"properties": {
				"title": "Bignose & Beardy",
				"address": "1 Testing Street, 2 Town Name, County, P05 7CD"
			}
		},{
			"type": "Feature",
			"properties": {
				"title": "Starvecrow",
				"address": "1 Testing Street, 2 Town Name, County, P05 7CD"
			}
		}
	]
}
